小区名称,房源数量,平均单价,经度,纬度
丁家弄小区,4,132330,121.436307,31.188334
万科华尔兹,6,115176.33333333333,121.436307,31.188334
万象园,4,63298.5,121.411201,31.162605
三江小区,14,86202.14285714286,121.439673,31.164879
上中路100弄,2,93720,121.433909,31.137357
上师大科技园,2,97311.5,121.414765,31.157867
上影广场(徐汇),1,83949,121.431842,31.199136
上影新村,6,90984,121.461851,31.201525
上方花园,1,420769,121.436307,31.188334
上海师大新村,3,71450.66666666667,121.41712,31.158809
上海新邨,1,151128,121.44663,31.208694
上缝小区,14,75306.5,121.445949,31.172312
世家小区,3,135605.66666666666,121.460852,31.208686
东安一村,3,97153.66666666667,121.436307,31.188334
东安三村,5,88338.6,121.436307,31.188334
东安五村,8,91312.25,121.452592,31.184251
东安四村,1,99530,121.450711,31.186675
东安大楼(徐汇),3,85073.66666666667,121.431842,31.199136
东安花苑,5,78732,121.455633,31.185885
东方巴黎,9,167198.55555555556,121.458761,31.21422
东方时空公寓,6,133076.33333333334,121.427716,31.192807
东方曼哈顿,9,142882.33333333334,121.433831,31.191094
东泉佳苑,1,63560,121.436307,31.188334
东泉小区,10,69556.9,121.443792,31.156163
东湾小区,2,66088,121.458912,31.122769
东航龙华苑,2,84162,121.451843,31.166052
东荡小区,3,84234.33333333333,121.424882,31.150768
丝庐花语,5,117513.6,121.466644,31.196419
中信中山大楼,1,77286,121.446413,31.181396
中信君廷,9,186496.11111111112,121.436307,31.188334
中原新村,3,108585.66666666667,121.539286,31.326535
中山南二路960弄,2,81850.5,121.447528,31.183164
中山新村,2,98284,121.455211,31.19875
中恒苑,6,61261,121.447925,31.139603
中海瀛台,11,112385.54545454546,121.453503,31.140154
中海馨园,11,99946.45454545454,121.428738,31.162025
中漕小区,7,96469.14285714286,121.435454,31.183805
中瑞公寓,1,94696,121.42052,31.18648
中虹汇之苑,2,109292.5,121.430271,31.166806
丰三小区,2,79764.5,121.454454,31.166904
临江豪园,7,130785.14285714286,121.453034,31.183337
久安小区,2,133412,121.446541,31.200009
乌中小区,3,99192,121.446605,31.21193
乐山一村,5,94750.6,121.436307,31.188334
乐山二村,7,93401.42857142857,121.430209,31.197215
乐山八九村,13,87907.92307692308,121.428819,31.193932
乐山六七村,7,96663.28571428571,121.430377,31.195671
乐山四五村,14,93278.71428571429,121.433131,31.196395
乐山大楼,5,97195.6,121.433254,31.196002
乐山路6号,1,85671,121.433202,31.196675
书香苑,8,66375.375,121.428132,31.138211
书香逸居,2,89705.5,121.433914,31.135497
乾骏园,2,78642.5,121.439771,31.166234
乾骏大厦,9,90372.66666666667,121.438135,31.16476
云华小区,1,92434,121.46198,31.200591
云福大厦,3,100825,121.462272,31.202678
亚都国际名园,6,126056.66666666667,121.437833,31.187918
交大公寓,2,85245,121.428614,31.193378
仪表新村,1,79210,121.426481,31.170336
住友公寓,6,79920.66666666667,121.443495,31.175223
体育花苑,4,63354.25,121.430643,31.143065
佳信徐汇公寓,5,79176,121.438077,31.173033
佳安公寓,3,88189.33333333333,121.447111,31.18945
保利星苑,6,112184.5,121.436561,31.164771
保利西岸,4,192827,121.45613,31.180184
俞一小区,14,77281.71428571429,121.452396,31.170457
俞三小区,10,69909.9,121.447695,31.168427
俞二小区,1,71277,121.449905,31.167605
健安坊,8,75463.25,121.424022,31.157133
儿科大楼,2,91180,121.457345,31.198248
兆丰帝景苑,4,111394.25,121.443944,31.195958
兆丰虹桥公寓,4,87745.75,121.423686,31.183363
兆嘉园,2,81862,121.436307,31.188334
光华园,7,85814.85714285714,121.432813,31.14037
光华绿苑,12,68003,121.436307,31.188334
光大会展中心,3,46966.333333333336,121.428891,31.16711
公安大楼(徐汇),9,97603.77777777778,121.431842,31.199136
兴南花园,2,85248.5,121.436307,31.188334
兴国花园,2,181959,121.436307,31.188334
兴国苑,1,142169,121.437787,31.208646
兴国路271弄,4,110506.5,121.437703,31.204934
兴荣苑,10,61544.2,121.431008,31.130491
冠生园路204-212号小区,2,64529,121.428396,31.163695
冠生苑,5,61975.4,121.426404,31.161782
冶金小区(徐汇),3,71220,121.418968,31.168538
凌云新村,30,58271.166666666664,121.417106,31.140692
凯旋一村,7,112775.42857142857,121.436307,31.188334
凯旋花苑,7,110971,121.436307,31.188334
凯旋豪庭,2,95414.5,121.431643,31.183494
凯旋路2280弄 ,3,90120.33333333333,121.42685,31.188041
凯歌公寓,1,98375,121.436307,31.188334
凯翔小区,12,79521.41666666667,121.439011,31.17024
凯迪虹桥晶舍,6,116122,121.413644,31.18155
化工一四村,18,56986.61111111111,121.421928,31.140388
化工二三村,3,56711,121.418575,31.138385
北海大厦,4,78447.25,121.44407,31.183541
医学院路54弄,3,85299,121.457431,31.199717
千鹤小区,2,69842,121.420209,31.178371
华东花苑,17,58406.05882352941,121.43489,31.148816
华中大厦,2,84890,121.421597,31.189699
华元公寓,2,92701,121.419119,31.170335
华利公寓,16,61864.75,121.415203,31.179734
华发小区,11,60248.09090909091,121.452339,31.128135
华容小区,1,93871,121.450037,31.179763
华富小区,3,78829.33333333333,121.441241,31.175786
华建一街坊,1,68609,121.439596,31.120553
华建二街坊,5,62660,121.438716,31.121343
华悦家园,9,88272.66666666667,121.409543,31.165659
华欣家园,12,67372.58333333333,121.460936,31.11959
华沁家园,15,74282.53333333334,121.450626,31.136849
华泾五村,4,54137.5,121.445737,31.119864
华泾四村,1,53095,121.447861,31.120194
华泾绿苑,10,68484,121.449666,31.122398
华港小区,1,107466,121.436307,31.188334
华滨家园,12,76435.5,121.449884,31.139911
华狮国际公寓,2,109631,121.441845,31.190525
华理苑,11,61121,121.420693,31.144217
华绮公寓,2,120421,121.445192,31.203476
华鼎广场,7,79250.14285714286,121.432008,31.180173
华龙公寓(徐汇),2,103496,121.431842,31.199136
华龙新苑小区,11,93874.18181818182,121.456407,31.17454
协合紫薇园,2,100101,121.429852,31.144652
协昌小区,9,82405.22222222222,121.444304,31.179398
南丹公寓,1,91785,121.436307,31.188334
南丹大楼,2,98142,121.441767,31.190044
南丹小区,10,114204.3,121.430324,31.191219
南丹路128弄,8,118024.125,121.432587,31.189083
南天大楼,5,94826.8,121.442592,31.190613
南宜花苑,4,101851,121.42863,31.186938
南山大楼,2,88480,121.430833,31.189499
南林公寓,5,90608.4,121.426681,31.17976
南溪公寓,1,96602,121.438913,31.187801
南站阳光小区,1,54913,121.427938,31.146296
南虹公寓,2,101032.5,121.432022,31.190189
印象欧洲(公寓),4,96363.75,121.458675,31.1175
双峰路8弄,1,83366,121.446093,31.187796
双晖小区,7,86736.28571428571,121.467379,31.197202
叠加苑,2,84855.5,121.453242,31.153145
合丰大楼,3,89957,121.462148,31.198626
吉象小区,3,87425.33333333333,121.452433,31.183106
名人花苑,12,59712.333333333336,121.453588,31.115014
名仕苑,6,132794.66666666666,121.434811,31.196244
吴东小区,6,76390.83333333333,121.422474,31.191462
吴中公寓,1,64433,121.420411,31.187414
吴兴大楼,1,94012,121.444457,31.200954
吴兴路30弄,3,135744.33333333334,121.441945,31.20509
周家湾小区,11,77386.90909090909,121.450815,31.171156
和平小区(徐汇),9,58703,121.430798,31.132245
嘉乐公寓,1,92812,121.45931,31.201962
嘉善路232弄,9,157198.77777777778,121.459344,31.207962
嘉川公寓,2,62631,121.429593,31.139181
嘉御庭一期,2,193266,121.459719,31.206481
嘉御庭三期（璈峰）,5,215465.6,121.459719,31.206481
嘉汇广场,1,67788,121.443208,31.188127
四季园,4,102950,121.451936,31.195907
园南新村,36,73281.61111111111,121.439964,31.140389
复兴中路1248弄,1,133793,121.458698,31.213099
大木小区,15,90097.46666666666,121.462771,31.198247
大木桥路450弄,9,90129,121.46265,31.195602
天合雅园,4,102242.5,121.465171,31.196959
天平小区,7,103004.42857142857,121.439194,31.19834
天平路91弄,1,104610,121.438084,31.201201
天悦,1,133912,121.436307,31.188334
天秀苑,2,74091.5,121.430107,31.130344
天钥新村,15,85123.4,121.44698,31.184669
天钥花苑,1,99568,121.439413,31.187293
天际花园,2,122113,121.436307,31.188334
天龙公寓,2,84201.5,121.445307,31.179077
天龙苑,2,89059,121.447612,31.156471
安福路229弄,2,258621,121.442838,31.2134
宏润花园,12,115250.58333333333,121.436307,31.188334
宛南一村,3,88226,121.450832,31.184003
宛南二村,2,92867,121.450009,31.184087
宛南五村,9,100807.77777777778,121.448127,31.180509
宛南六村,6,116969.33333333333,121.44698,31.178956
宛南华侨新村,1,95625,121.450487,31.181143
宛南四村,4,82010,121.450444,31.18158
宛平南路170弄,5,85243.4,121.445602,31.193828
宛平南路240弄,1,89439,121.446047,31.193114
宛平南路268弄,2,95005.5,121.44637,31.192901
宛平南路493弄,2,86331,121.4487,31.189449
宛平南路65弄,7,87541.42857142857,121.446633,31.196566
宛平路6弄,1,128212,121.440207,31.204257
宛龙小区,10,81230.1,121.448921,31.182033
宜仕怡家,4,104211.75,121.441222,31.176354
宜山路518弄,5,77670.6,121.424562,31.182118
宜山路691弄,2,84419,121.421324,31.175504
宜山路701弄,2,76672,121.417893,31.173662
宜德苑,3,103275.66666666667,121.426571,31.185311
实业公寓,1,97389,121.437005,31.192796
家乐苑,5,56560,121.433179,31.135803
宾阳路居民区,3,70304.66666666667,121.437339,31.163818
寿山坊,7,68814.85714285714,121.422434,31.152497
寿德坊,1,71733,121.421856,31.154131
寿昌坊,4,66164.5,121.420029,31.150993
寿益坊,9,66561.22222222222,121.417533,31.151871
寿祥坊,7,66750.42857142857,121.419231,31.151108
小木桥路101弄,7,80931.71428571429,121.457917,31.199043
尚汇豪庭,7,139345.85714285713,121.431879,31.178763
尚汇豪庭二期,1,149542,121.42752,31.180832
尚海湾豪庭一期,36,146905.02777777778,121.460283,31.179931
尚海湾豪庭三期,23,173507.26086956522,121.460283,31.179931
尚海湾豪庭二期,3,151164.33333333334,121.460283,31.179931
尚谊小区,3,99501,121.453708,31.195178
岳阳大楼,1,128460,121.453057,31.203696
岳阳路200弄,1,134861,121.451693,31.204431
岳阳路77弄,2,132335,121.453274,31.207684
市民村,1,91181,121.430049,31.196856
常熟路165号,1,97115,121.449316,31.21516
常熟路228弄,4,117867.5,121.448638,31.214437
平华大厦,2,88961,121.456781,31.201206
平成阁公寓,1,68072,121.423731,31.172649
平江大楼,4,82735.25,121.456712,31.200351
平江路273弄,1,147672,121.451975,31.199257
年平花苑,2,107277,121.459504,31.20763
广元路193号,1,107143,121.438503,31.198632
广厦公寓,2,71711,121.416508,31.180188
广汇花苑,2,75853,121.454926,31.191767
庆余公寓,5,101581.2,121.4283,31.189554
康乐小区(徐汇),3,69276,121.431842,31.199136
康健公寓,1,73442,121.421457,31.156516
康健路100弄,2,68736.5,121.426746,31.164821
康健路120弄,2,65044,121.426599,31.16537
康健路17号,1,71139,121.432845,31.165653
康健路24弄,3,63567.333333333336,121.431253,31.165414
康健路25弄,4,68317.25,121.432385,31.166377
康健路77弄,3,71850.66666666667,121.428788,31.165898
康健路7号,3,64936,121.433218,31.165474
康宁坊,4,68335,121.427561,31.158405
康平路207弄,1,132253,121.438589,31.199977
康强坊,3,79671,121.424651,31.154284
康沁苑,2,90217,121.424058,31.162282
延庆路11弄,1,117791,121.452396,31.216446
建国西路211弄,2,127344,121.461749,31.205858
建国西路358弄,3,129819,121.456274,31.204788
建国西路613弄,1,108290,121.44846,31.201101
强生花苑,6,102603.5,121.444197,31.176158
徐家汇景园,1,103539,121.427982,31.189023
徐家汇花园,13,115313.46153846153,121.447207,31.193531
徐汇一品苑,3,147961.33333333334,121.440473,31.213324
徐汇世家花园,5,95836.4,121.431842,31.199136
徐汇公园道壹号一期尊庭,6,146642.66666666666,121.431842,31.199136
徐汇公园道壹号二期臻庭,9,156532.11111111112,121.435126,31.159736
徐汇华园,1,79429,121.452788,31.129171
徐汇嘉馨公寓,1,107587,121.459682,31.200631
徐汇御景苑,2,99598,121.447899,31.166504
徐汇御苑,5,109323.6,121.454748,31.192556
徐汇新城(公寓),5,89655.8,121.45183,31.132446
徐汇汽车公寓,4,96067,121.45987,31.195599
徐汇苑,17,107046.17647058824,121.445207,31.178906
徐汇锦梅苑,11,67811.45454545454,121.42401,31.132862
徐汇长春苑,3,79612,121.42147,31.181051
徐虹公寓,5,83882.8,121.42584,31.186707
徐虹北路28弄,3,104872.66666666667,121.428443,31.19036
徐虹路112弄,2,108674,121.431391,31.189893
德昌路20弄,2,147059,121.441295,31.201232
怡桂苑,4,72834,121.416183,31.176131
恒地苑,5,99339,121.445817,31.166314
恒昌花园,5,88320.4,121.447528,31.193195
悦兴苑,4,83347.5,121.454239,31.15689
愉园,1,116489,121.448679,31.212458
懿园,2,159084.5,121.450313,31.203889
振兴小区(徐汇),8,93832.5,121.431842,31.199136
挹翠苑,12,84259.83333333333,121.445163,31.154481
文南公寓,4,90639.5,121.443633,31.189916
文定天下苑,3,134918.66666666666,121.431206,31.184395
文定路85号,1,105766,121.433513,31.187902
文定路89号,3,114812.33333333333,121.433514,31.187904
斜土路1358弄,2,93488,121.46262,31.197792
斜土路1620号,3,86608.66666666667,121.458003,31.196249
斜土路2200弄,7,85400.42857142857,121.449843,31.191214
新汇公寓,3,93945,121.446141,31.195053
新汾阳公寓,4,127250.5,121.454424,31.210769
新湖云庭,10,93671.9,121.460879,31.191366
新贵都万体景苑,5,123709.6,121.442248,31.186828
日晖二村,2,99853,121.465461,31.193658
日晖五村,1,121790,121.466738,31.198016
日晖六村,5,94807,121.460511,31.195333
日晖新城,4,102272,121.436307,31.188334
时运大楼,1,77667,121.464152,31.200394
明丰新纪苑,4,81556.75,121.452874,31.12694
明佳苑,2,87692,121.442184,31.176541
明华苑,5,111030.8,121.432243,31.189056
明园世纪城,5,102792.8,121.458887,31.212035
明园小安桥,2,106717,121.422714,31.184892
明安馨苑,2,106438.5,121.44193,31.176451
春华苑,9,60234,121.416069,31.139614
景泰大厦,2,82588,121.464825,31.199864
月季园(徐汇),3,59889,121.410929,31.149031
望族城,3,61760.666666666664,121.435645,31.169896
杜鹃园,8,58163.375,121.412937,31.155429
松风花园,8,61446.375,121.433243,31.132926
林肯公寓,3,130581,121.445067,31.208786
枫林大楼,9,87767.66666666667,121.45305,31.200009
枫林新村,1,98620,121.459591,31.191465
枫林路14弄,2,82316,121.453316,31.200027
柳州路200号—柳州路210号,1,60737,121.425509,31.162468
柳州路374弄,3,78663.66666666667,121.424231,31.169693
柿子湾小区,6,102283.33333333333,121.429589,31.189676
柿子湾路8弄,1,103589,121.428803,31.187692
桂平小区,11,65532.63636363636,121.408509,31.159137
桂平路277弄,4,66447.75,121.406932,31.158517
桂康小区,4,77995.25,121.419243,31.165683
桂林苑,15,71254.53333333334,121.413075,31.180682
桂莘小区,7,65357.71428571428,121.407602,31.16003
梅花园,1,57046,121.41342,31.150038
梅苑,5,52332.2,121.436307,31.188334
梅陇七村,8,54567,121.422833,31.139244
梅陇三村,15,54216.333333333336,121.412822,31.14129
梅陇九村,21,54550.95238095238,121.422109,31.129608
梅陇五村,27,51361.81481481482,121.42261,31.133744
梅陇六村,14,52934.5,121.412822,31.14129
梅陇十一村,28,53871.857142857145,121.426918,31.13342
梅陇十村,7,52074.57142857143,121.423617,31.130903
梅陇四村,37,51887.72972972973,121.421073,31.137521
梓树园,6,75521.83333333333,121.430387,31.162632
梦蝶苑,6,79866.33333333333,121.436964,31.164566
梧桐花园,16,121249.3125,121.460223,31.205396
森陇家园,1,74346,121.416232,31.136797
楼园小区,15,60806.26666666667,121.431272,31.145279
樟树苑,1,75250,121.451166,31.14856
樱花园(徐汇),6,52640.166666666664,121.431842,31.199136
橡胶小区,6,87471.33333333333,121.445572,31.196913
欣嘉苑,5,95727.6,121.410724,31.180679
欣园新邨,4,65530.25,121.407272,31.157324
武康路391弄,2,114160.5,121.439219,31.205915
武康路73弄,1,142341,121.440849,31.212311
民苑小区,12,111177.25,121.45807,31.171307
气象苑,2,85330,121.437164,31.168507
永兆豪庭,3,84517,121.395743,31.173606
永嘉大楼,4,120326.5,121.449294,31.20452
永嘉路485弄,1,129537,121.453695,31.206323
永嘉路486号,2,124532,121.453674,31.206321
永太小区,4,128689,121.456411,31.209247
永康路141弄,1,113551,121.456287,31.209871
永康路175弄,1,120116,121.456096,31.209385
永康路180号,1,243422,121.456239,31.210286
永新城,9,151586,121.436307,31.188334
永新花苑,2,100161,121.443443,31.193286
永福第六小区,2,137561,121.437639,31.206332
永福路147弄,1,147825,121.444292,31.209715
汇京佳丽园,3,95940.66666666667,121.429969,31.147135
汇峰鼎园,4,146545.5,121.436307,31.188334
汇成一村,2,51810.5,121.436307,31.188334
汇成三村,4,55824.75,121.436307,31.188334
汇成二村,5,48420.8,121.43492,31.145582
汇成五村,5,63588.4,121.436307,31.188334
汇成四村,2,55255,121.435493,31.144711
汇成宾阳苑,2,115006,121.436915,31.163457
汇成桂苑,1,115322,121.436307,31.188334
汇景苑,3,104598.66666666667,121.461516,31.204203
汇翠花园,3,95986,121.438541,31.184992
汇达苑,1,63170,121.438078,31.149558
汇金广场,4,89144,121.440415,31.195237
汇龙花苑(徐汇),6,86695.16666666667,121.431842,31.199136
汽联大厦,7,82285.71428571429,121.456773,31.199069
汾阳路9弄,2,136804,121.455706,31.213846
沪贵苑,2,100859,121.433566,31.187125
河滨国际公寓,2,91114.5,121.431509,31.164107
泰东新村(徐汇),10,95127.6,121.431842,31.199136
泰安路27弄,3,90531,121.43769,31.20546
泰康大楼,1,78640,121.457881,31.197006
泰德苑,1,153516,121.431524,31.187976
泰莱大厦,9,92589,121.46077,31.189716
海上华庭,3,100780.66666666667,121.417975,31.149083
海上名邸,4,114235.5,121.423879,31.155435
海上名门公寓,1,102737,121.42783,31.160051
海天公寓,4,102200.5,121.441758,31.191354
海珀旭晖,5,183899.4,121.458428,31.182624
海螺花园,2,94065,121.436307,31.188334
淮海中路1795号,1,141383,121.439974,31.205081
淮海大楼,4,149867,121.44994,31.213055
淮海鑫城苑,1,108246,121.424911,31.196546
清枫大楼,5,94043.2,121.456379,31.198884
清真路77号,2,86824,121.458972,31.199143
湖南路298弄,2,115030,121.438681,31.208526
滨江小区,2,74356,121.457044,31.152442
漕河景苑,4,107430,121.429875,31.164647
漕泾一村,2,61572,121.436307,31.188334
漕溪一村,13,70324.38461538461,121.436823,31.174018
漕溪三村,7,79616.57142857143,121.43719,31.170806
漕溪二村,3,79094.33333333333,121.439107,31.172001
漕溪四村,8,79047.375,121.439813,31.171379
漕溪大楼,4,86835.75,121.436002,31.184092
炎虹路71弄,2,89482,121.465389,31.202412
炎虹路76弄,2,86734,121.465389,31.202412
煤科公寓,6,76147.5,121.445382,31.180431
爱中爱华公寓,5,98358.4,121.449474,31.186025
爱乐大厦,1,66725,121.446544,31.187902
爱博大厦,1,73164,121.446193,31.188543
爱建园,9,109262.22222222222,121.432641,31.175063
爱邦大厦,1,56644,121.447447,31.188234
狮城花苑,14,73425.35714285714,121.446967,31.165539
玉兰花苑,17,90541.05882352941,121.435064,31.18611
王家堂小区,5,92253.8,121.444003,31.189258
瑞嘉公寓,2,104064,121.465134,31.203351
瑞金南苑,2,104870.5,121.467246,31.199625
瑞金尊邸,1,109121,121.436307,31.188334
生活花苑,3,72727.33333333333,121.448876,31.168576
田林一村,2,70221,121.422071,31.174703
田林三四村,3,66478.66666666667,121.422478,31.170246
田林九村,4,79594.25,121.421834,31.172764
田林五六七村,18,66876.22222222222,121.418501,31.171765
田林十一村,12,72921.58333333333,121.425926,31.171407
田林十三村,1,75550,121.424739,31.173275
田林十二村,18,67556.16666666667,121.428621,31.172214
田林十四村,18,69721.22222222222,121.423526,31.175538
田林十村,3,86478.33333333333,121.421143,31.174294
田林新苑,10,60477.6,121.422071,31.174703
申峰大厦,8,86612.875,121.441847,31.187118
申德公寓,1,92570,121.421523,31.176867
申航小区,14,85517.21428571429,121.441639,31.177808
电影华苑,4,103696.75,121.436307,31.188334
番南小区,4,103025.75,121.426801,31.192123
番禺大楼,2,71217,121.427961,31.195833
番禺小区,1,90336,121.427987,31.198197
番禺路650弄,2,102706,121.42906,31.199295
番禺路998弄,3,95027.66666666667,121.427871,31.195206
百乐公寓,3,94770,121.459911,31.198755
百合花苑,1,63472,121.412762,31.15035
百汇园一期,14,166786.35714285713,121.46046,31.1726
百汇园二期,11,167081.81818181818,121.45946,31.17441
百龙小区,5,73719,121.450056,31.145126
盛华景苑,24,66622.04166666667,121.455236,31.108796
盛大花园,12,112979.08333333333,121.436307,31.188334
石油公寓,3,87507.66666666667,121.433354,31.197084
祥和公寓(徐汇),3,110259,121.431842,31.199136
福华花苑,7,100753,121.4655,31.200996
福苑小区,9,69306.55555555556,121.425654,31.176266
秀山支路5弄,2,103636,121.430153,31.196539
秀水苑(徐汇),2,65065,121.431842,31.199136
科华公寓,1,95040,121.430056,31.16879
科嘉小区,2,92411.5,121.442135,31.19429
科汇公寓,3,93137.66666666667,121.436307,31.188334
科汇景苑,3,90343.66666666667,121.439749,31.172286
科苑新村,10,74462.7,121.432876,31.163795
紫薇园,7,61690.28571428572,121.40984,31.151896
紫藤苑,1,84418,121.412564,31.149226
紫阳花苑,15,59720.13333333333,121.455508,31.114637
红旗教师公寓,11,92754.54545454546,121.449492,31.19116
罗城小区,6,64633.833333333336,121.434144,31.14954
罗秀三村,12,55008.916666666664,121.436307,31.188334
罗秀二村,1,51512,121.449261,31.131408
罗秀家园,2,81222,121.432027,31.131795
罗秀新村,23,61737.04347826087,121.447743,31.132315
罗秀路1001弄,1,63418,121.429896,31.129385
美乐小区,3,82018.33333333333,121.42522,31.170329
美晶佳园,2,110020,121.444773,31.182676
老沪闵路439弄,4,54071.5,121.427113,31.147922
联业大厦,4,113139.5,121.450615,31.200069
肇嘉浜路853弄,6,88497.16666666667,121.446394,31.197362
腾王阁,1,86341,121.451826,31.182825
舒乐公寓,3,48582,121.434893,31.13117
舒乐小区,11,58430,121.434391,31.13047
舒城苑,3,80589.33333333333,121.434413,31.129444
航天新苑,3,73721.66666666667,121.434234,31.171105
航道住宅小区,2,88117,121.463626,31.195295
良友公寓,1,146497,121.443746,31.210371
芝大厦,3,153095,121.448774,31.206699
花苑村丁香园,6,56733.833333333336,121.415381,31.145819
花苑村桂花园,2,51329,121.416174,31.148068
花苑村梅花园,3,63402.666666666664,121.41519,31.149258
花苑村玉兰园,4,58258.5,121.413372,31.144038
花苑村紫竹园,5,59025.8,121.413916,31.153028
花苑茶花园,2,61248.5,121.414351,31.151138
茂龄别墅(公房),3,116151.66666666667,121.447587,31.201253
茶陵小区,2,80517.5,121.468195,31.195896
茶陵路159弄,3,91210.66666666667,121.467795,31.196914
茶陵路345弄,3,88512.66666666667,121.462838,31.196752
茶陵路400弄,2,89172,121.463339,31.1962
荣承公寓,1,94358,121.450125,31.192084
莱诗邸,3,131601,121.440094,31.190159
莲岸家园,1,81523,121.424356,31.128722
薛家宅小区,5,66026,121.426787,31.163747
虹桥丽园,1,121053,121.428726,31.194134
虹桥乐庭,1,124606,121.426173,31.193661
虹桥路400弄,9,95105.11111111111,121.430087,31.192266
虹桥路772弄,2,101810,121.424751,31.194579
虹梅南路126弄,1,47338,121.417012,31.13974
虹梅南路96弄,9,56411.444444444445,121.415876,31.140187
虹梅小区,5,60321,121.395849,31.175114
衡安大楼,2,100651,121.446125,31.204554
衡山路58弄,2,97314.5,121.445803,31.204309
衡山路696弄,1,109895,121.442039,31.199264
裕德大厦,6,87231,121.436307,31.188334
裕德路66弄,5,108244.4,121.435633,31.184409
襄北大楼,2,109842,121.455623,31.217117
襄阳公寓,1,160783,121.457817,31.203794
襄阳南路277弄,3,129250.66666666667,121.458233,31.209871
襄阳南路388弄,2,143707,121.457354,31.207344
襄阳南路452弄,5,139068,121.457921,31.206131
西木小区,12,90021.66666666667,121.458635,31.19433
西雅图嘉萱苑,8,112377.875,121.438256,31.166968
解龙小区,3,95729,121.454153,31.184023
誉仁家园,2,100756,121.45556,31.156623
诸家宅小区,1,76661,121.436307,31.188334
谨斜小区,15,93630.73333333334,121.448534,31.193321
轻工大木桥小区,11,77907.63636363637,121.461593,31.197516
轻工大楼,3,72181,121.459143,31.196867
迎春园,5,49930.2,121.417629,31.147241
远雄徐汇园,10,141286.7,121.464075,31.19805
金丽广场,5,65923.4,121.419745,31.177569
金塘小区,3,71496,121.426505,31.148375
金桂苑(徐汇),5,63409,121.431842,31.199136
金浦大楼,2,59702,121.436823,31.175367
金海大厦,8,67853.25,121.436859,31.16923
金牛苑,1,75484,121.433844,31.151293
金祥苑,3,88049,121.41881,31.179589
金色港湾,6,116829.5,121.436307,31.188334
金衡公寓,2,94535,121.436102,31.173919
金诚花园,2,107498.5,121.436307,31.188334
金谷园,27,82114,121.437093,31.176243
金轩公寓,2,87564.5,121.439696,31.188397
金龙花苑牡丹园,16,86848.1875,121.455752,31.168269
金龙花苑玫瑰园,2,89333,121.455752,31.168269
金龙花苑茶花园,1,99428,121.456914,31.169277
鑫国家园,1,112274,121.439809,31.186294
鑫耀中城,1,157986,121.414655,31.167965
鑫隆花园,13,58049.07692307692,121.436307,31.188334
钦州公寓,6,63062.166666666664,121.42769,31.175731
钦州大厦,3,71941.33333333333,121.431414,31.161489
钦州花苑,15,55068,121.42702,31.178374
钦州路111弄,3,72408.33333333333,121.432025,31.162218
钦江大楼,2,55811,121.513591,31.264069
铭源大楼,1,69593,121.436278,31.174917
银亿徐汇酩悦,5,89715,121.459845,31.197952
银星名庭,2,79064,121.437294,31.169061
银海苑,2,96349.5,121.461788,31.196562
锦岩小区,5,115184.8,121.456254,31.207299
锦汇苑,1,105264,121.434315,31.187927
锦泰苑(徐汇),2,53920,121.431842,31.199136
锦蝶苑,3,94439.33333333333,121.451046,31.192663
锦馨公寓,4,80812.5,121.417829,31.190104
锦馨苑,16,77014.625,121.4159,31.189969
长丰坊,4,62739.75,121.415655,31.1538
长乐路447号,1,134373,121.454007,31.218278
长乐路681号,3,115317,121.449447,31.216354
长兴坊,4,61108,121.415074,31.156838
长峰小区,5,72181.4,121.454348,31.153157
长春小区,1,73590,121.422222,31.183974
长春新苑,2,65452,121.436307,31.188334
长桥一村,9,78015.33333333333,121.438871,31.136311
长桥三村,15,55805.46666666667,121.438871,31.136311
长桥五村,7,72831.71428571429,121.435559,31.135959
长桥八村,6,51104.333333333336,121.439768,31.131052
长桥六村,6,66822.33333333333,121.438871,31.136311
长桥四村,10,57393.4,121.439373,31.133515
长桥新村,2,65925,121.442557,31.137444
长海坊,2,60334.5,121.419002,31.157108
长虹坊,6,66933.66666666667,121.416512,31.157263
长陇苑,14,46764.42857142857,121.429647,31.136135
长青坊,3,73217.33333333333,121.417606,31.154362
长顺坊,14,70727.57142857143,121.416512,31.157263
阳光名苑,2,135842,121.449362,31.194476
阳光新景,1,78176,121.42697,31.135832
阳光绿园,12,87652.08333333333,121.436307,31.188334
陇南小区,1,51035,121.422549,31.129251
陕西南路550弄,2,167244.5,121.460894,31.207365
集雅公寓,1,148346,121.445037,31.202253
零陵小区,12,87863.5,121.444466,31.186954
青松小区,8,91553.5,121.449422,31.196816
音苑小区,4,146092.75,121.453286,31.212271
颐峰苑,2,155248,121.431501,31.188689
馨宁公寓,8,68885.625,121.447726,31.128049
馨汇南苑,9,111747.66666666667,121.436307,31.188334
高安路50弄,2,122191,121.445653,31.201967
高安路9弄,2,104797,121.445478,31.206315
高雅新村,2,62760,121.431897,31.13597
鸿艺豪苑,6,141081,121.445719,31.209395
龙兆苑,4,110684,121.446965,31.170983
龙华路2373弄,2,94553,121.452411,31.181674
龙华雅居,1,97852,121.452342,31.179156
龙南七村,6,69014.66666666667,121.452919,31.158807
龙南三四村,11,69166.63636363637,121.453723,31.15365
龙南五村,4,67018.75,121.45345,31.155031
龙南公寓,2,85716.5,121.456597,31.15459
龙南六村,3,66375.33333333333,121.436307,31.188334
龙吴路11弄,6,70950.5,121.44338,31.17366
龙吴路13弄,2,71807,121.443938,31.172927
龙吴路9弄,3,95682.33333333333,121.432336,31.166312
龙安小区,1,94181,121.455132,31.184864
龙山公寓,3,78090.33333333333,121.447871,31.184119
龙山小区,2,92241.5,121.44639,31.182912
龙山新村,14,82730.35714285714,121.444891,31.184374
龙州小区,14,57312.71428571428,121.426547,31.129544
龙汇苑,2,71318,121.44252,31.16811
龙漕大楼,1,70563,121.436012,31.168735
龙漕苑,3,77086.33333333333,121.437456,31.168576
